site_id;status;four_char_id;domes;date_installed;date_removed;X;Y;Z;Latitude;Longitude;Elevation;primaryDataCenter;secondaryDataCenter;SiteContact;location;state_province;country
ACHU00FRA;Active;ACHU;18362M001;2011-11-09T00:00Z;;4338815.846;279083.111;4651428.633;47.124441654115;3.6803328264592;327.19277574494;RENAG;ORPHEON;ORPHEON;ACHUN;Nievre (58);France (FRA)
ADAX00FRA;Active;ADAX;18363M001;2008-07-22T00:00Z;;4617008.301;-85071.884;4384968.209;43.710779633965;-1.0555987958648;70.765977500007;RENAG;ORPHEON;ORPHEON;DAX;Landes (40);France (FRA)
ADER00FRA;Decommissioned;ADER;18342M001;2022-10-26T14:00Z;2023-08-01T12:34Z;4687288.219;31080.066;4313523.821;42.813255027778;0.37990633611111;1791.488;RENAG;IGN;OMP;Adervielle;Occitania;France (FRA)
ADER10FRA;Active;ADER;18342M002;2023-08-01T15:58Z;;4687286.809;31078.502;4313525.763;42.813276536111;0.37988733611111;1791.766;RENAG;;OMP;Adervielle-Pouchergues;Occitania;France (FRA)
AGDE00FRA;Active;AGDE;19976M001;2006-09-04T12:00Z;;4640976.11;281124.973;4351569.972;43.296384488496;3.4664296209365;65.772;RENAG (ftp://renag.unice.fr);IGN ( ftp://rgpdata.ign.fr and ftp://rgpdata.ensg.;OREME;Cap d'Agde - Agde;Herault;France (FRA)
AIGL00FRA;Active;AIGL;10059M001;2001-06-01T00:00Z;;4578299.812;286539.127;4418911.913;44.121399937704;3.5812632433351;1618.75;RENAG (ftp://renag.unice.fr);IGN ( ftp://rgpdata.ign.fr and ftp://rgpdata.ensg.ign.fr);OREME;Valleraugue;Gard;France (FRA)
ALLE00FRA;Active;ALLE;18364M001;2011-07-06T00:00Z;;4493263.044;291491.612;4503711.303;45.19877238954;3.7117499770044;1084.9173684819;RENAG;ORPHEON;ORPHEON;ALLEGRE;Haute-Loire (43);France (FRA)
ALPE00FRA;Active;ALPE;19985M001;2006-10-30T00:00Z;;4486705.503;478180.959;4495489.797;45.086616199095;6.0834653837951;1892.197;RENAG (ftp://renag.resif.fr);IGN ( ftp://rgpdata.ign.fr and ftp://rgpdata.ensg.ign.fr);OSUG;Alpe d'Huez;Isere;France (FRA)
ANNO00FRA;Active;ANNO;18365M001;2006-05-19T00:00Z;;4484002.391;365948.89;4506607.293;45.24137678942;4.6656890495512;465.60153567418;RENAG;ORPHEON;ORPHEON;ANNONAY;Ardeche (07);France (FRA)
AOUS00FRA;Active;AOUS;18366M001;2013-03-20T00:00Z;;4522761.772;400284.594;4464757.485;44.71087402832;5.0577537079316;264.14252813347;RENAG;ORPHEON;ORPHEON;AOUSTE-SUR-SYE;Drome (26);France (FRA)
ARCH00FRA;Active;ARCH;18367M001;2011-10-26T00:00Z;;4384032.525;49996.123;4617046.051;46.673168095753;0.65338079726319;187.02869236004;RENAG;ORPHEON;ORPHEON;ARCHIGNY;Vienne (86);France (FRA)
ARES00FRA;Active;ARES;18381M001;2007-01-22T00:00Z;;4535251.728;-89782.401;4468813.458;44.764037002426;-1.134111426163;64.251497253776;RENAG;ORPHEON;ORPHEON;ARES;Gironde (33);France (FRA)
ARGR00FRA;Active;ARGR;18643M001;2007-06-28T12:00Z;;4411393.332;542029.319;4563154.138;45.946504305668;7.0048407168165;2837.234;RENAG (ftp://renag.unice.fr);;OSUG;Argentiere;Haute-Savoie;France (FRA)
ARLD00FRA;Active;ARLD;18368M001;2011-11-08T00:00Z;;4333783.054;340039.635;4652178.866;47.133511534714;4.4863809659961;414.75886096712;RENAG;ORPHEON;ORPHEON;ARNAY-LE-DUC;Cote-d'Or (21);France (FRA)
ARMI00FRA;Active;ARMI;18369M001;2006-10-10T00:00Z;;4648233.565;224574.405;4347188.898;43.241928175348;2.7660331065077;101.12487868313;RENAG;ORPHEON;ORPHEON;ARGENS MINERVOIS;Aude (11);France (FRA)
ARRO00FRA;Active;ARRO;18370M001;2011-09-22T00:00Z;;4266733.912;83642.894;4724503.315;48.100459340545;1.1230536408214;214.8821075391;RENAG;ORPHEON;ORPHEON;ARROU;Eure-et-Loir (28);France (FRA)
ARUF00FRA;Active;ARUF;19644M001;2014-03-13T00:00Z;;4664623.674;-35100.204;4335912.867;43.099550185133;-0.43112922577077;481.995;RENAG;IGN;OMP;ARUDY;Pyrenees-Atlantique;France (FRA)
ARVE00FRA;Active;ARVE;18371M001;2008-06-05T00:00Z;;4457979.673;-86191.045;4545455.663;45.743680329016;-1.1076245912826;62.06807840988;RENAG;ORPHEON;ORPHEON;ARVERT;Charente-Maritime (17);France (FRA)
AUBU00FRA;Active;AUBU;19977M001;2008-07-05T00:00Z;;4224986.634;533493.569;4733835.556;48.216852239334;7.1967114403932;1151.817;RENAG (ftp://renag.unice.fr);IGN ( ftp://rgpdata.ign.fr andftp://rgpdata.ensg.ign.fr);EOST;Aubure;Haut Rhin;France (FRA)
AVEN00FRA;Active;AVEN;18374M001;2006-04-19T00:00Z;;4408943.816;355213.268;4580798.713;46.194824025619;4.6061726928852;740.80566285457;RENAG;ORPHEON;ORPHEON;AVENAS;Rhone (69);France (FRA)
AVOT00FRA;Active;AVOT;18375M001;2011-11-07T16:42Z;;4290853.311;376470.451;4688727.611;47.619283225083;5.0141713147287;379.44991748966;RENAG;ORPHEON;ORPHEON;AVOT;Cote-d'Or (21);France (FRA)
AVR100FRA;Inactive;avr-01;18676M001;2007-12-07T00:00Z;;4499703.1;445421.217;4484547.814;44.956071356692;5.6532362542925;923.79;RENAG (ftp://renag.resif.fr);;OSUG;Avignonet;Isere;France (FRA)
AVR200FRA;Active;avr-02;18318M001;2019-09-06T12:00Z;;4499704.841;445418.991;4484548.802;44.956068027272;5.6532060120148;925.559;RENAG (ftp://renag.resif.fr);;OSUG;Avignonet;Isere;France (FRA)
BACA00FRA;Active;BACA;18382M001;2012-05-29T00:00Z;;4677553.604;248313.38;4314490.9;42.83953122168;3.0387607655017;64.33772384841;RENAG;ORPHEON;ORPHEON;LE BARCARES;Pyrenees-Orientales (66);France (FRA)
BACO00FRA;Active;BACO;18383M001;2006-03-20T00:00Z;;4136453.009;172160.19;4835801.295;49.622474531277;2.383288901611;143.03420639224;RENAG;ORPHEON;ORPHEON;BACOUEL;Oise (60);France (FRA)
BANN00FRA;Active;BANN;19999M001;2003-07-03T00:00Z;;4555127.67;331016.603;4437760.158;44.369204019685;4.1563214448671;357.614;RENAG (ftp://renag.unice.fr);IGN ( ftp://rgpdata.ign.fr and ftp://rgpdata.ensg.ign.fr);OSUG;Banne;Ardeche;France (FRA)
BARN00FRA;Active;BARN;18384M001;2012-08-01T00:00Z;;4531938.858;330358.116;4461564.684;44.668155105127;4.1692322761483;523.36940906383;RENAG;ORPHEON;ORPHEON;BARNAS;Ardeche (07);France (FRA)
BART00FRA;Active;BART;18385M001;2010-11-18T00:00Z;;4269525.488;560549.297;4689717.057;47.633062829272;7.4796267920667;321.02190892585;RENAG;ORPHEON;ORPHEON;BARTENHEIM;Haut-Rhin (68);France (FRA)
BAUB00FRA;Inactive;BAUB;19968M001;2006-09-04T12:00Z;;4594085.677;318588.162;4398388.809;43.876901878896;3.9669656404938;210.946;RENAG (ftp://renag.unice.fr);IGN ( ftp://rgpdata.ign.fr and ftp://rgpdata.ensg.ign.fr);OREME;Brouzet-les-Quissac;Gard;France (FRA)
BAZO00FRA;Active;BAZO;18376M001;2011-09-23T00:00Z;;4301368.238;-12781.889;4693749.4;47.689256277177;-0.17025887991199;83.232975273393;RENAG;ORPHEON;ORPHEON;BAZOUGES SUR LE LOIR;Sarthe (72);France (FRA)
BLIX00FRA;Active;BLIX;18675M001;2009-04-24T12:00Z;;4577595.022;510765.332;4398719.864;43.873540360898;6.366694473208;1077.093;RENAG;;OCA;BLIEUX;PROVENCE-COTE D'AZUR;France (FRA)
BLVR00FRA;Active;BLVR;19671M001;2013-07-03T00:00Z;;4302995.833;498731.73;4666742.001;47.323478169444;6.6112750138889;714.53;RENAG;OSU-THETA;THETA;Belvoir / Les Champs Renaud;Doubs (25);France (FRA)
BOUF00FRA;Active;BOUF;18335M001;2021-06-23T09:38Z;;4342889.307;-124197.149;4653974.419;47.160571312488;-1.638087691494;72.989;RENAG (ftp://renag.unice.fr);IGN ( ftp://rgpdata.ign.fr andftp://rgpdata.ensg.ign.fr);CNAM;Bouguenais;Pays de la Loire;France (FRA)
BUAN00FRA;Active;BUAN;19973M001;2007-11-13T00:00Z;;4217191.182;395196.344;4753189.07;48.486155135461;5.3535984007375;416.292;RENAG (ftp://renag.unice.fr);IGN ftp://rgpdata.ign.fr or rgpdata.ensg.ign.fr;EOST;Bure;Meuse;France (FRA)
BURE00FRA;Inactive;BURE;19952M001;1999-06-22T00:00Z;;4524030.921;468358.608;4460241.823;44.632839618007;5.9105945927137;2614.627;RENAG;;OCA;Saint Etienne en Devoluy;Hautes Alpes;France (FRA)
CGRO00FRA;Active;CGRO;18325M001;2020-11-25T13:54Z;;4557022.106;575701.768;4413236.017;44.047251471071;7.2001979872087;1969.364;RENAG;;OCA;Marie;ALPES-MARITIMES;France (FRA)
CHA200FRA;Active;CHA2;18304M001;2018-12-07T13:00Z;;4485810.093;463446.86;4498347.864;45.120236100015;5.8985274625363;2202.799;RENAG;;OSUG;Chamrousse;Isere;France (FRA)
CHAM00FRA;Inactive;CHAM;19998M001;2003-12-19T15:37Z;;4486466.536;462134.046;4497368.54;45.110716462815;5.8810813234203;1874.645;RENAG (ftp://renag.resif.fr);;OSUG;Chamrousse;Isere;France (FRA)
CHIZ00FRA;Active;CHIZ;10020M001;2000-10-19T00:00Z;;4427603.321;-31506.135;4575621.742;46.133461996683;-0.40770095375386;113.2173;IGN;BKG;OASU;Chize;Deux-Sevres;France (FRA)
CHMX00FRA;Inactive;CHMX;18674M001;2007-06-29T12:00Z;;4413057.686;531928.963;4560347.424;45.926156896902;6.8730030977003;1120.807;RENAG (ftp://renag.resif.fr);;OSUG;Chamonix;Haute-Savoie;France (FRA)
CHRN00FRA;Active;CHRN;19951M001;2000-10-26T13:00Z;;4588137.161;390285.009;4398679.386;43.881358491607;4.8620999245375;115.215;RENAG;;RESIF;Chateaurenard;Bouches du Rhone;France (FRA)
CHTG00FRA;Active;CHTG;19622M001;2015-02-20T00:00Z;;4135853.968;-118088.137;4837806.026;49.651237681682;-1.6354818620402;54.929;IGN;RENAG (ftp://renag.unice.fr);OASU;Cherbourg;Basse Normandie;France (FRA)
CHTL00FRA;Active;CHTL;10099M001;1997-10-14T00:00Z;;4466577.884;497736.115;4511789.815;45.304139177046;6.3585603681002;850.305;RENAG (ftp://renag.resif.fr);IGN ( ftp://rgpdata.ign.fr and ftp://rgpdata.ensg.ign.fr);OSUG;Le Chatel;Savoie;France (FRA)
CLAP00FRA;Active;CLAP;10081M001;2003-04-05T00:00Z;;4543826.044;552040.54;4428864.207;44.248449805444;6.9270554486386;1369.848;RENAG;OMIV;OCA;Saint Etienne de Tinee;Alpes Maritimes;France (FRA)
CLFD00FRA;Active;CLFD;19986M001;2006-10-17T00:00Z;;4451153.919;241929.084;4547091;45.760965005925;3.111078662885;473.596;IGN SGN;IGN LAREG;OPGC;Clermont-Ferrand;Puy de Dome(63);France (FRA)
CRAL00FRA;Active;CRAL;19939M001;2010-02-09T13:00Z;;4662596.379;29882.438;4338374.979;43.128421096019;0.36720187603971;658.315;RENAG;IGN;OMP;Lannemezan;Hautes-Pyrenees;France (FRA)
CREF00FRA;Active;CREF;18303M001;2018-09-27T13:00Z;;4523714;525181.688;4453027.14;44.549438594706;6.6221225551983;1742.206;RENAG;;OSUG;Crevoux;Hautes_alpes;France (FRA)
DIPP00FRA;Active;DIPP;19628M001;2015-01-22T00:00Z;;4113192.928;77861.374;4857765.046;49.929191625;1.0844605277778;55.233;IGN;RENAG (ftp://renag.unice.fr);OASU;Dieppe;Haute Normandie;France (FRA)
DUNQ00FRA;Active;DUNQ;19670M001;2013-09-19T00:00Z;;4014478.617;165918.78;4936947.657;51.048064555556;2.3666930083333;51.086;IGN;RENAG (ftp://renag.unice.fr);OASU;Dunkerque;;France (FRA)
EOST00FRA;Active;EOST;10014M003;2007-04-12T00:00Z;;4188985.181;571026.51;4759936.197;48.579844732757;7.7624972888689;213.282;RENAGi (ftp://renag.unice.fr);IGN ftp://rgpdata.ign.fr or rgpdata.ensg.ign.fr;EOST;Strasbourg;Bas-Rhin;France (FRA)
ERCK00FRA;Active;ERCK;19954M001;2009-03-18T00:00Z;;4168605.02;538759.891;4781506.297;48.873029220313;7.3642136421504;296.122;RENAG ftp://renag.unice.fr;IGN ftp://rgpdata.ign.fr or rgpdata.ensg.ign.fr;EOST;Erckartswiller;Bas-Rhin;France (FRA)
FAJP00FRA;Active;FAJP;19640M001;2002-04-12T00:00Z;;4653568.246;164608.163;4344574.72;43.20737968224;2.0258481078819;367.966;RENAG;IGN;CNES;Fanjeaux;Aude (11);France (FRA)
FCLZ00FRA;Inactive;FCLZ;10098M001;1998-06-04T14:00Z;;4443368.489;465894.513;4538566.236;45.643002768911;5.9856856204198;1358.204;RENAG;;OSUG;Les Deserts;Savoie;France (FRA)
FIED00FRA;Active;FIED;19669M001;2013-09-20T00:00Z;;4354791.505;435806.012;4624932.576;46.772708122222;5.7148510222222;599.668;RENAG;OSU-THETA;THETA;Le Fied;Jura (39);France (FRA)
FILF00FRA;Active;FILF;18642M001;2014-09-03T00:00Z;;4701611.418;198457.689;4292258.493;42.560252252271;2.4170525717848;904.123;RENAG (ftp://renag.unice.fr);IGN ( ftp://rgpdata.ign.fr and ftp://rgpdata.ensg.ign.fr);OREME;Fillols;Pyrenees-Orientales;France (FRA)
FJC200FRA;Active;FJC2;10086M002;2017-06-20T12:00Z;;4662985.329;227642.192;4331634.091;43.048164208203;2.7949026214052;323.17;RENAG;IGN;CNES;Fontjoncouse;Aude (11);France (FRA)
FJCP00FRA;Decommissioned;FJCP;10086M001;2002-04-12T00:00Z;2017-06-20T12:00Z;4662984.988;227642.124;4331633.741;43.048164019043;2.794901991916;322.68;RENAG;IGN;CNES;Fontjoncouse;Aude (11);France (FRA)
FLGY00FRA;Active;FLGY;19673M001;2013-06-06T00:00Z;;4330024.32;464746.641;4645286.623;47.03998110903;6.1261712767674;671.819;RENAG;OSU-THETA;THETA;Flagey;Doubs (25);France (FRA)
GENF00FRA;Active;GENF;18329M001;2021-04-14T12:00Z;;4684281.426;128571.972;4313812.258;42.823390547222;1.5722330861111;1000.463;RENAG;IGN;OMP;Genat;Ariege;France (FRA)
GERL00FRA;Active;GERL;18658M001;2014-07-16T00:00Z;;4508447.849;432278.205;4478013.063;44.867248101363;5.4768812376348;1571.332;RENAG;;OSUG;Gresse-En-Vercors;Isere;France (FRA)
GINA00FRA;Active;GINA;10095M001;1998-02-05T18:00Z;;4597158.797;465907.286;4382366.99;43.675725316789;5.786984260252;381.968;RENAG;RGP;IRSN;Cadarache;Bouches du Rhone;France (FRA)
GRJF00FRA;Active;GRJF;18673M001;2010-09-01T00:00Z;;4492475.452;118734.115;4511417.39;45.302939244849;1.5139493593392;458.35;RENAG;;RESIF;Saint-Bonnet-l'Enfantier;Correze;France (FRA)
GUIL00FRA;Active;GUIL;19950M001;2007-11-12T11:50Z;;4514199.253;527251.23;4461552.932;44.662246463647;6.6618710923398;1171.058;RENAG;;OCA;Guillestre;Hautes Alpes;France (FRA)
HOLA00FRA;Active;HOLA;19645M001;2014-03-07T00:00Z;;4591090.184;258415.242;4406201.038;43.969754291866;3.2215652158139;759.778;RENAG (ftp://renag.unice.fr);IGN ( ftp://rgpdata.ign.fr and ftp://rgpdata.ensg.ign.fr);OREME;Hospitalet du Larzac;Aveyron;France (FRA)
IRAF00FRA;Active;IRAF;18322M001;2020-09-16T10:00Z;;4669718.471;-84529.112;4331222.561;43.033510645737;-1.0370287883657;1463.691;IGN;;OMP;Larrau;Pyrenees-Atlantiques;France (FRA)
JANU00FRA;Active;JANU;19815M001;2005-10-14T00:00Z;;4495453.579;528892.926;4482123.466;44.910364930986;6.7100383799387;2583.874;RENAG (ftp://renag.unice.fr);IGN ( ftp://rgpdata.ign.fr and ftp://rgpdata.ensg.ign.fr);OSUG;Montgenevre;Hautes-Alpes;France (FRA)
JOUX00FRA;Active;JOUX;19949M001;2000-04-19T00:00Z;;4373976.918;443957.299;4606479.658;46.528571413889;5.7956555666667;845.5;RENAG;OSU-THETA;THETA;Chatel-de-Joux;JURA;France (FRA)
LACA00FRA;Active;LACA;19995M001;2005-06-01T00:00Z;;4615743.394;219900.294;4383435.001;43.680992118282;2.7275865215797;1315.55;RENAG (ftp://renag.unice.fr);IGN ( ftp://rgpdata.ign.fr andftp://rgpdata.ensg.ign.fr);OREME;Lacaune;Tarn;France (FRA)
LEBE00FRA;Active;LEBE;19987M001;2005-05-16T12:00Z;;4424275.168;435725.894;4559438.543;45.916078386589;5.6246514413609;940.579;RENAG;;OSUG;Sutrieu;Ain;France (FRA)
LFAZ00FRA;Active;LFAZ;19997M001;2005-01-10T15:11Z;;4489171.827;424229.894;4497263.228;45.116630694266;5.3984594374644;1071.185;RENAG;;OSUG;Le Faz ( Presles );Isere;France (FRA)
LNE100FRA;Active;LNE1;18319M001;2020-01-29T00:00Z;;4210104.09;145801.21;4773229.31;48.760734042165;1.9834323731229;224.689;RENAG (ftp://renag.resif.fr);IGN ( ftp://rgpdata.ign.fr and ftp://rgpdata.ensg.ign.fr);LNE-SYRTE;Trappes;Yvelines;France (FRA)
LROC00FRA;Active;LROC;10023M001;2001-11-23T00:00Z;;4424632.8;-94175.5;4577543.9;46.158939577838;-1.219320185566;57.894;IGN;BKG;OASU;La Rochelle;CHARENTE MARITIME;France (FRA)
LUCE00FRA;Active;LUCE;19974M001;2007-10-31T00:00Z;;4287689.411;546846.755;4675410.776;47.438352324788;7.2681958564419;741.613;RENAG;IGN;EOST;Lucelle;Haut-Rhin;France (FRA)
MAKS00FRA;Active;MAKS;19978M001;2007-05-01T00:00Z;;4250693.043;524293.824;4712062.017;47.923006429353;7.0315267191777;1237.204;RENAG;IGN;RESIF;Fellering - lieu dit Markstein;Haut-Rhin;France (FRA)
MAN200FRA;Active;MAN2;10091M002;2008-01-23T00:00Z;;4274276.05;11584.22;4718385.97;48.018615419828;0.15528367426599;168;IGN;BKG;CNAM;Le Mans;Sarthe (72);France (FRA)
MANS00FRA;Decommissioned;MANS;10091M001;1998-04-21T00:00Z;2008-01-26T00:00Z;4274276.05;11584.22;4718385.97;48.018615419827;0.15528367426599;167.99970470276;IGNE;BKGE;CNAM;Le Mans;Sarthe;France (FRA)
MICH00FRA;Active;MICH;10011M001;1998-07-15T14:00Z;;4578886.689;458434.687;4402461.718;43.924158718289;5.7173577554245;628.132;RENAG;;IRSN;Saint Michel l'Observatoire;Alpes de Haute Provence;France (FRA)
MODA00FRA;Active;MODA;10096M001;1998-10-16T14:00Z;;4470757.388;525991.427;4504955.668;45.213779463981;6.7100892375648;1182.262;RENAG (ftp://renag.resif.fr);IGN (ftp://rgpdata.ign.fr and ftp://rgpdata.ensg.ign.fr);Epos-Fr;Avrieux;Haute Savoie;France (FRA)
MRON00FRA;Active;MRON;19666M001;2013-09-19T00:00Z;;4352245.958;484521.618;4623551.653;46.747234767;6.352398849;1367.422;RENAG;OSU-THETA;THETA;Longevilles-Mont-d'Or;Doubs (25);France (FRA)
MTP200FRA;Active;MTP2;10097M002;2013-08-12T12:00Z;;4612849.63;311570.343;4379221.422;43.638763343896;3.8641173234308;129.43;RENAG (ftp://renag.unice.fr);IGN ( ftp://rgpdata.ign.fr and ftp://rgpdata.ensg.ign.fr);OREME;Montpellier;Herault;France (FRA)
MTPL00FRA;Inactive;MTPL;10097M001;1999-04-01T12:00Z;;4612940.41;311635.14;4379108.664;43.63743919118;3.8648426762301;120.325;RENAG (ftp://renag.unice.fr);IGN ( ftp://rgpdata.ign.fr and ftp://rgpdata.ensg.ign.fr);OREME;Montpellier;Herault;France (FRA)
NATT00FRA;Active;NATT;18641M001;2016-05-20T14:00Z;;4439504.076;446878.774;4542852.699;45.707195528335;5.7480096918043;380.525;RENAG;;OSUG;PARVES-ET-NATTAGES;Savoie;France (FRA)
NICE00FRA;Active;NICE;10012M001;2000-12-15T12:00Z;;4579496.725;586645.361;4386396.84;43.725501181799;7.2999790816961;427.311;RENAG;;OCA;Nice;Alpes Maritimes;France (FRA)
OGAG00FRA;Active;OGAG;18672M001;2011-07-18T00:00Z;;4505687.807;516518.826;4471598.704;44.787803321521;6.5396723318978;1356.554;RENAG;;OSUG;L'Argentiere la Bessee;Hautes-Alpes;France (FRA)
OGSA00FRA;Active;OGSA;18341M001;2022-09-15T10:30Z;;4488071.032;503478.877;4491773.887;45.036847527778;6.4007697;2163.553;RENAG (ftp://renag.resif.fr);;OSUG;Villar-d'Arene;;France (FRA)
OPME00FRA;Active;OPME;19702M001;2011-07-11T00:00Z;;4455228.649;240489.854;4543528.687;45.712885036083;3.0897839629679;707.952;RENAG;;OPGC;Romagnat;Puy de Dome (63);France (FRA)
PALI00FRA;Active;PALI;19725M001;2007-12-06T00:00Z;;4627054.355;389395.679;4357997.739;43.375974436598;4.8104646449306;60.36;RENAG (ftp://renag.unice.fr);IGN ( ftp://rgpdata.ign.fr and ftp://rgpdata.ensg.ign.fr);OREME;Salins de Giraud;Bouches du Rhone;France (FRA)
PARD00FRA;Active;PARD;19969M001;2007-05-04T12:00Z;;4633957.398;228541.61;4362856.125;43.431373269504;2.8234761892741;622.789;RENAG (ftp://renag.unice.fr);IGN ( ftp://rgpdata.ign.fr and ftp://rgpdata.ensg.ign.fr);OREME;Pardailhan;Herault;France (FRA)
PDOM00FRA;Active;PDOM;19703M001;2011-07-12T00:00Z;;4451594.949;230537.743;4548701.395;45.772123041418;2.964566691855;1513.551;RENAG;;OPGC;Orcines;Puy de Dome (63);France (FRA)
PERX00FRA;Active;PERX;19678M001;2013-06-06T00:00Z;;4334045.869;490447.958;4639564.728;46.960065136111;6.4562222222222;1134.053;RENAG;OSU-THETA;THETA;Hauterive-la-Fresse;Doubs;France (FRA)
PIMI00FRA;Decommissioned;PIMI;10025M001;2010-04-20T13:00Z;2021-04-22T08:30Z;4678892.313;11649.327;4324325.849;42.9364333772;0.14265254411787;2923.425;RENAG;IGN;CNES;Bareges La Mongie;Hautes-Pyrenees;France (FRA)
PLOE00FRA;Active;PLOE;19948M001;2006-12-04T00:00Z;;4289018.617;-256868.294;4697995.885;47.746116592148;-3.42733666993;73.891;RENAG;;OSUR;Ploemeur;Morbihan;France (FRA)
PUYA00FRA;Active;PUYA;19816M001;2005-11-30T00:00Z;;4501028.268;511152.887;4477342.454;44.857671636206;6.478956668521;1690.282;RENAG (ftp://renag.unice.fr);IGN (ftp://rgpdata.ign.fr and ftp://rgpdata.ensg.ign.fr);OSUG;Vallouise;Hautes-Alpes;France (FRA)
RABU00FRA;Active;RABU;19941M001;2003-10-10T11:00Z;;4542691.011;555926.784;4431231.296;44.267822858548;6.9770673124052;2551.776;RENAG;;OCA;Saint Etienne de Tinee;Alpes Maritimes;France (FRA)
RG0000FRA;Active;RG00;18671M001;2000-03-04T00:00Z;;4723524.946;730728.318;4209123.697;41.558837663092;8.7939350196316;89.571;RENAG;;OCA;Sartene;Corse-du-sud;France (FRA)
RG0100FRA;Active;RG01;18671M002;2021-03-11T00:00Z;;4723524.797;730728.893;4209123.869;41.558839176805;8.7939421043564;89.640839572996;RENAG;;OCA;Sartene;Corse-du-sud;France (FRA)
RIXH00FRA;Active;RIXH;19720M001;2011-03-11T00:00Z;;4262317.547;551922.235;4697253.261;47.733642578134;7.3781054389948;330.762;RENAG ftp://renag.unice.fr;IGN ftp://rgpdata.ign.fr or rgpdata.ensg.ign.fr;EOST;Rixheim;Alsace;France (FRA)
ROSD00FRA;Active;ROSD;19817M001;2005-12-15T00:00Z;;4434267.781;515276.636;4542573.824;45.691491301709;6.6282323109029;1694.496;RENAG (ftp://renag.unice.fr);IGN (ftp://rgpdata.ign.fr and ftp://rgpdata.ensg.ign.fr);OSUG;Beaufort-sur-Doron;Savoie;France (FRA)
ROTG00FRA;Active;ROTG;19938M001;2009-08-26T00:00Z;;4205957.8;-291581.038;4770000.561;48.71843682993;-3.9657259227251;56.133;IGN   ;RENAG (ftp://renag.unice.fr);OASU;Roscoff;Finistere;France (FRA)
RSTL00FRA;Active;RSTL;19866M001;2002-07-26T00:00Z;;4579745.418;439664.482;4404112.62;43.940958586316;5.4837010439422;1069.812;RENAG;;OCA;Rustrel (Laboratoire Souterrain a Bas Bruit LSBB);Vaucluse;France (FRA)
RUSA00FRA;Active;RUSA;19866M003;2018-06-27T00:00Z;;4579882.759;438220.358;4403399.814;43.936346302326;5.4656355948147;574.439;RENAG (ftp://renag.unice.fr);;OREME;Rustrel;Vaucluse;France (FRA)
RUSB00FRA;Active;RUSB;19866M002;2018-06-26T11:25Z;;4579831.54;439240.571;4403734.466;43.938225798165;5.4783436167541;839.986;RENAG (ftp://renag.unice.fr);;OREME;Rustrel;Vaucluse;France (FRA)
SAUV00FRA;Active;SAUV;19947M001;1999-11-17T00:00Z;;4562076.767;356393.184;4428722.104;44.255452688348;4.46692109349;367.37;RENAG;;OCA;Issirac;GARD;France (FRA)
SEOL00FRA;Active;SEOL;19875M002;2014-12-04T00:00Z;;4535487;528164;4440011;44.389991858689;6.6422588543397;1215.0177050987;RENAG;RGP;EOST;Seolane;Alpes-de-Haute-Provence (04);France (FRA)
SET100FRA;Active;SET1;19940M002;2024-04-12T12:40Z;;4631907.376;299680.363;4359918.111;43.3997807;3.7018274027778;57.8348;RENAG (ftp://renag.unice.fr);IGN ( ftp://rgpdata.ign.fr and ftp://rgpdata.ensg.ign.fr);OREME;SETE;OCCITANIE;France (FRA)
SETE00FRA;Active;SETE;19940M001;2007-10-26T06:48Z;;4632080.934;299471.798;4359743.459;43.397650662473;3.6991200241451;53.899;RENAG (ftp://renag.unice.fr);IGN ( ftp://rgpdata.ign.fr and ftp://rgpdata.ensg.ign.fr);OREME;Sete;Herault;France (FRA)
SJDV00FRA;Inactive;SJDV;10090M001;1997-10-14T10:00Z;;4433469.65;362673.097;4556211.878;45.879086678587;4.6765791963402;432.41;IGN;BKG;OSUG;Saint Jean des Vignes;Saone et Loire;France (FRA)
SLVT00FRA;Active;SLVT;19975M001;2006-01-09T12:00Z;;4594761.073;262378.671;4402240.717;43.919805631065;3.2682617876122;811.822;RENAG (ftp://renag.unice.fr);IGN ( ftp://rgpdata.ign.fr and ftp://rgpdata.ensg.;OREME;La Salvetat - Couvertoirade;Aveyron;France (FRA)
SMTG00FRA;Active;SMTG;19936M001;2010-02-17T00:00Z;;4219870.922;-149386.734;4764322.118;48.641082639326;-2.0274687776706;57.815;IGN;RENAG (ftp://renag.unice.fr);OASU;Saint-Malo;Ille et Vilaine;France (FRA)
SOPH00FRA;Active;SOPH;19946M001;2001-01-12T13:00Z;;4590479.019;568040.474;4377057.14;43.611429920995;7.0541028180696;178.819;RENAG;;OCA;VALBONNE;Alpes-Maritimes;France (FRA)
STEY00FRA;Active;STEY;19996M001;2003-05-27T13:15Z;;4477316.001;451772.169;4506785.324;45.235221035451;5.7617833708618;1394.895;RENAG;;OSUG;Saint Eynard;Isere;France (FRA)
STJ900FRA;Active;STJ9;10014M001;1999-11-06T10:00Z;;4186323.827;564809.553;4763029.522;48.621664047407;7.6838216617429;237.149;RENAG ftp://renag.unice.fr;IGN ftp://rgpdata.ign.fr or rgpdata.ensg.ign.fr;EOST;Strasbourg;Bas-Rhin;France (FRA)
STMR00FRA;Active;STMR;19726M001;2008-04-08T12:00Z;;4624016.709;357555.263;4363900.453;43.449148573472;4.4216367421844;56.066;RENAG (ftp://renag.unice.fr);IGN ( ftp://rgpdata.ign.fr and ftp://rgpdata.ensg.ign.fr);OREME;Saintes-Maries de la Mer;Bouches du Rhone;France (FRA)
SURF00FRA;Active;SURF;18637M001;2017-01-12T10:00Z;;4527343.274;540794.557;4447684.737;44.480913673967;6.8117485162899;1868.968;RENAG;;OSUG;Meyronnes;Alpes-de-Haute-Provence;France (FRA)
SVRN00FRA;Inactive;SVRN;19945M001;2001-09-06T00:00Z;;4510503.863;546396.669;4465576.7;44.696889296034;6.9070824543946;2999.339;RENAG;;OCA;Saint Veran;Hautes Alpes;France (FRA)
TAOU00FRA;Active;TAOU;18347M001;2023-09-08T08:30Z;;4679621.734;13414.552;4322680.001;42.921091;0.164243;2340;RENAG;;OMP;La Mongie;Hautes-Pyrenees;France (FRA)
TENC00FRA;Active;TENC;19944M001;2004-04-05T00:00Z;;4495835.23;337054.64;4497789.42;45.124562340831;4.2874678002003;935.86;RENAG;;RESIF;Tence;Haute-Loire;France (FRA)
TLTG00FRA;Active;TLTG;18682M001;2017-10-27T00:00Z;;4638276.771;480395.353;4337064.959;43.117378280556;5.9131517972222;51.877;IGN;RENAG (ftp://renag.unice.fr);OASU;Toulon;Provence-Alpes-Cote d'Azur;France (FRA)
TROP00FRA;Active;TROP;19943M001;2005-06-02T00:00Z;;4624695.67;535178.509;4345555.91;43.219485967363;6.6010142581348;369.292;RENAG;;OCA;Gassin;Var;France (FRA)
UCBL00FRA;Active;UCBL;18360M001;2022-10-22T00:00Z;;4439861.041;378297.402;4548506.247;45.78129188822;4.8701118247266;249.27096714824;RENAG;;OSUL;Villeurbanne;Rhone;France (FRA)
WANN00FRA;Active;WANN;18234M001;2008-07-08T00:00Z;;4052582.132;231256.763;4903360.377;50.569758585772;3.2659874737339;97.822512209415;RENAG;ORPHEON;ORPHEON;WANNEHAIN;Hauts-de-France;France (FRA)
WLBH00FRA;Active;WLBH;19942M001;2000-10-16T15:00Z;;4206975.859;542755.146;4748254.739;48.415172785473;7.3513016507346;819.078;RENAG (ftp://renag.unice.fr);RGP ftp://rgpdata.ign.fr or rgpdata.ensg.ign.fr;EOST;le Hohwald;Bas-Rhin;France (FRA)
